{
"type": "FeatureCollection",
"name": "solar_sites",
"crs": { "type": "name", "properties": { "name": "urn:ogc:def:crs:OGC:1.3:CRS84" } },
"features": [
{ "type": "Feature", "properties": { "ghi": -156.04645161290324, "lat": -12.0464, "lon": -77.0428, "nombre": "Lima", "selected": 1 }, "geometry": { "type": "Point", "coordinates": [ -77.0428, -12.0464 ] } },
{ "type": "Feature", "properties": { "ghi": -156.04645161290324, "lat": -12.0516, "lon": -77.12, "nombre": "Callao", "selected": 1 }, "geometry": { "type": "Point", "coordinates": [ -77.12, -12.0516 ] } },
{ "type": "Feature", "properties": { "ghi": -156.04645161290324, "lat": -12.175, "lon": -77.025, "nombre": "Chorrillos", "selected": 1 }, "geometry": { "type": "Point", "coordinates": [ -77.025, -12.175 ] } },
{ "type": "Feature", "properties": { "ghi": -155.39387096774195, "lat": -12.2686, "lon": -76.8936, "nombre": "Lurín", "selected": 1 }, "geometry": { "type": "Point", "coordinates": [ -76.8936, -12.2686 ] } },
{ "type": "Feature", "properties": { "ghi": -154.50838709677421, "lat": -14.0678, "lon": -75.7286, "nombre": "Ica", "selected": 1 }, "geometry": { "type": "Point", "coordinates": [ -75.7286, -14.0678 ] } },
{ "type": "Feature", "properties": { "ghi": -155.48548387096776, "lat": -13.7086, "lon": -76.2053, "nombre": "Pisco", "selected": 1 }, "geometry": { "type": "Point", "coordinates": [ -76.2053, -13.7086 ] } },
{ "type": "Feature", "properties": { "ghi": -155.00419354838709, "lat": -14.8319, "lon": -74.9394, "nombre": "Nazca", "selected": 1 }, "geometry": { "type": "Point", "coordinates": [ -74.9394, -14.8319 ] } },
{ "type": "Feature", "properties": { "ghi": -154.29806451612902, "lat": -16.4, "lon": -71.535, "nombre": "Arequipa", "selected": 1 }, "geometry": { "type": "Point", "coordinates": [ -71.535, -16.4 ] } },
{ "type": "Feature", "properties": { "ghi": -154.55387096774194, "lat": -16.6237, "lon": -72.7106, "nombre": "Camaná", "selected": 1 }, "geometry": { "type": "Point", "coordinates": [ -72.7106, -16.6237 ] } },
{ "type": "Feature", "properties": { "ghi": -156.39741935483869, "lat": -17.0231, "lon": -72.0147, "nombre": "Mollendo", "selected": 1 }, "geometry": { "type": "Point", "coordinates": [ -72.0147, -17.0231 ] } },
{ "type": "Feature", "properties": { "ghi": -155.38709677419354, "lat": -15.6383, "lon": -71.5994, "nombre": "Chivay", "selected": 1 }, "geometry": { "type": "Point", "coordinates": [ -71.5994, -15.6383 ] } },
{ "type": "Feature", "properties": { "ghi": -154.33935483870968, "lat": -17.1947, "lon": -70.9367, "nombre": "Moquegua", "selected": 1 }, "geometry": { "type": "Point", "coordinates": [ -70.9367, -17.1947 ] } },
{ "type": "Feature", "properties": { "ghi": -154.97064516129032, "lat": -17.6394, "lon": -71.3375, "nombre": "Ilo", "selected": 1 }, "geometry": { "type": "Point", "coordinates": [ -71.3375, -17.6394 ] } },
{ "type": "Feature", "properties": { "ghi": -154.86129032258063, "lat": -18.0147, "lon": -70.2536, "nombre": "Tacna", "selected": 1 }, "geometry": { "type": "Point", "coordinates": [ -70.2536, -18.0147 ] } },
{ "type": "Feature", "properties": { "ghi": -154.33935483870968, "lat": -17.4789, "lon": -70.0303, "nombre": "Tarata", "selected": 1 }, "geometry": { "type": "Point", "coordinates": [ -70.0303, -17.4789 ] } },
{ "type": "Feature", "properties": { "ghi": -157.11, "lat": -13.5167, "lon": -71.9789, "nombre": "Cusco", "selected": 1 }, "geometry": { "type": "Point", "coordinates": [ -71.9789, -13.5167 ] } },
{ "type": "Feature", "properties": { "ghi": -156.65516129032255, "lat": -13.3067, "lon": -72.1147, "nombre": "Urubamba", "selected": 1 }, "geometry": { "type": "Point", "coordinates": [ -72.1147, -13.3067 ] } },
{ "type": "Feature", "properties": { "ghi": -156.65516129032255, "lat": -13.1631, "lon": -72.545, "nombre": "Machu Picchu", "selected": 1 }, "geometry": { "type": "Point", "coordinates": [ -72.545, -13.1631 ] } },
{ "type": "Feature", "properties": { "ghi": -156.0109677419355, "lat": -14.2708, "lon": -71.2267, "nombre": "Sicuani", "selected": 1 }, "geometry": { "type": "Point", "coordinates": [ -71.2267, -14.2708 ] } },
{ "type": "Feature", "properties": { "ghi": -155.36, "lat": -15.8422, "lon": -70.0199, "nombre": "Puno", "selected": 1 }, "geometry": { "type": "Point", "coordinates": [ -70.0199, -15.8422 ] } },
{ "type": "Feature", "properties": { "ghi": -155.36, "lat": -15.5, "lon": -70.1333, "nombre": "Juliaca", "selected": 1 }, "geometry": { "type": "Point", "coordinates": [ -70.1333, -15.5 ] } },
{ "type": "Feature", "properties": { "ghi": -154.90451612903226, "lat": -16.5656, "lon": -69.0417, "nombre": "Desaguadero", "selected": 1 }, "geometry": { "type": "Point", "coordinates": [ -69.0417, -16.5656 ] } },
{ "type": "Feature", "properties": { "ghi": -156.65516129032255, "lat": -13.6339, "lon": -72.8814, "nombre": "Abancay", "selected": 1 }, "geometry": { "type": "Point", "coordinates": [ -72.8814, -13.6339 ] } },
{ "type": "Feature", "properties": { "ghi": -156.03354838709677, "lat": -13.6556, "lon": -73.3872, "nombre": "Andahuaylas", "selected": 1 }, "geometry": { "type": "Point", "coordinates": [ -73.3872, -13.6556 ] } },
{ "type": "Feature", "properties": { "ghi": -155.96548387096774, "lat": -13.1588, "lon": -74.2232, "nombre": "Ayacucho", "selected": 1 }, "geometry": { "type": "Point", "coordinates": [ -74.2232, -13.1588 ] } },
{ "type": "Feature", "properties": { "ghi": -156.3967741935484, "lat": -12.9333, "lon": -74.25, "nombre": "Huanta", "selected": 1 }, "geometry": { "type": "Point", "coordinates": [ -74.25, -12.9333 ] } },
{ "type": "Feature", "properties": { "ghi": -156.3967741935484, "lat": -12.7869, "lon": -74.9731, "nombre": "Huancavelica", "selected": 1 }, "geometry": { "type": "Point", "coordinates": [ -74.9731, -12.7869 ] } },
{ "type": "Feature", "properties": { "ghi": -156.3967741935484, "lat": -12.3956, "lon": -74.8661, "nombre": "Pampas", "selected": 1 }, "geometry": { "type": "Point", "coordinates": [ -74.8661, -12.3956 ] } }
]
}
